{"type":"FeatureCollection","features":[{"type":"Feature","geometry":{"type":"MultiLineString","coordinates":[[[-73.2538,42.451558],[-73.741147,42.641029],[-73.797729,42.253891],[-73.951278,41.921346],[-73.93749,41.707056],[-73.882394,41.189903],[-73.902263,40.935586],[-73.994459,40.750327]],[[-73.994459,40.750327],[-73.902263,40.935586],[-73.882394,41.189903],[-73.93749,41.707056],[-73.951278,41.921346],[-73.797729,42.253891],[-73.741147,42.641029],[-73.2538,42.451558]]]},"properties":{"id":6139721,"onestop_id":"r-dr7-berkshireflyer","feed_onestop_id":"f-9-amtrak~amtrakcalifornia~amtrakcharteredvehicle","feed_version_sha1":"ae91ff13cdbe57802e96dfef3dfef57e05520fe5","route_id":"42948","route_color":"CAE4F1","route_desc":"","route_long_name":"Berkshire Flyer","route_short_name":"","route_type":2,"route_url":"http://www.amtrak.com","alerts":null,"route_stops":[{"stop":{"id":126271613,"stop_id":"ALB","stop_name":"Albany-Rensselaer Amtrak Station","geometry":{"type":"Point","coordinates":[-73.741147,42.641029]},"__typename":"Stop"},"__typename":"RouteStop"},{"stop":{"id":126271731,"stop_id":"CRT","stop_name":"Croton-Harmon Amtrak Station","geometry":{"type":"Point","coordinates":[-73.882394,41.189903]},"__typename":"Stop"},"__typename":"RouteStop"},{"stop":{"id":126271915,"stop_id":"HUD","stop_name":"Hudson Amtrak Station","geometry":{"type":"Point","coordinates":[-73.797729,42.253891]},"__typename":"Stop"},"__typename":"RouteStop"},{"stop":{"id":126272106,"stop_id":"NYP","stop_name":"NY Moynihan Train Hall at Penn Station","geometry":{"type":"Point","coordinates":[-73.994459,40.750327]},"__typename":"Stop"},"__typename":"RouteStop"},{"stop":{"id":126272148,"stop_id":"PIT","stop_name":"Pittsfield Amtrak Station","geometry":{"type":"Point","coordinates":[-73.2538,42.451558]},"__typename":"Stop"},"__typename":"RouteStop"},{"stop":{"id":126272163,"stop_id":"POU","stop_name":"Poughkeepsie Amtrak Station","geometry":{"type":"Point","coordinates":[-73.93749,41.707056]},"__typename":"Stop"},"__typename":"RouteStop"},{"stop":{"id":126272208,"stop_id":"RHI","stop_name":"Rhinecliff Amtrak Station","geometry":{"type":"Point","coordinates":[-73.951278,41.921346]},"__typename":"Stop"},"__typename":"RouteStop"},{"stop":{"id":126272444,"stop_id":"YNY","stop_name":"Yonkers Amtrak Station","geometry":{"type":"Point","coordinates":[-73.902263,40.935586]},"__typename":"Stop"},"__typename":"RouteStop"}],"agency":{"id":101742,"agency_id":"51","agency_name":"Amtrak","onestop_id":"o-9-amtrak","__typename":"Agency"},"headways":[{"dow_category":7,"service_date":"2022-07-10","direction_id":1,"headway_secs":null,"departures":["16:30:00"],"__typename":"RouteHeadway"},{"dow_category":1,"service_date":"2022-07-08","direction_id":0,"headway_secs":null,"departures":["18:05:00"],"__typename":"RouteHeadway"}],"feed_version":{"id":279082,"fetched_at":"2022-07-25T14:00:43.757199Z","__typename":"FeedVersion"}},"id":6139721}]}